[
  {
    "website": "http://www.robodevils.com",
    "name": "Waterjet Cutting of Indiana/Rolls Royce/3M/Beckman Coulter Foundation/Chip Ganassi&Pike High School",
    "locality": "Indianapolis",
    "rookie_year": 2003,
    "region": "Indiana",
    "team_number": 1018,
    "location": "Indianapolis, Indiana 46268, USA",
    "key": "frc1018",
    "country_name": "USA",
    "motto": null,
    "nickname": "Pike RoboDevils"
  },
  {
    "website": "http://www.mckenzierobotics.org",
    "name": "MTD Products/Rolls-Royce Corporation/Indiana Department of Education & McKenzie Center for Innovation and Technology",
    "locality": "Indianapolis",
    "rookie_year": 2003,
    "region": "Indiana",
    "team_number": 1024,
    "location": "Indianapolis, Indiana 46256, USA",
    "key": "frc1024",
    "country_name": "USA",
    "motto": null,
    "nickname": "Kil-A-Bytes"
  },
 
  {
    "website": "http://huntingtonrobotics.org",
    "name": "UTEC/PHD, Inc./Pentair/BAE Systems/Yamaha Robotics & Huntington County 4-H Robotics",
    "locality": "Huntington",
    "rookie_year": 2005,
    "region": "Indiana",
    "team_number": 1501,
    "location": "Huntington, Indiana 46750, USA",
    "key": "frc1501",
    "country_name": "USA",
    "motto": "We build robots and careers",
    "nickname": "Team THRUST"
  },
  {
    "website": "http://www.southportrobotics.org/",
    "name": "Innovation.Tools / Renaissance Electronic Services / IndianaFIRST / AndyMark, Inc. / Rolls-Royce / Jackson Systems / Technology Recyclers / Fab2Order / Waterjet Cutting of Indiana / Hurst Technical Services / RTAC Dunn Business & Academic Writing & Southport High School",
    "locality": "Indianapolis",
    "rookie_year": 2005,
    "region": "Indiana",
    "team_number": 1529,
    "location": "Indianapolis, Indiana 46227, USA",
    "key": "frc1529",
    "country_name": "USA",
    "motto": "We build our own friends.  #FriendsWithRobots",
    "nickname": "CyberCards"
  },
  {
    "website": "http://muncierobotics.org",
    "name": "Meridian Health Services/Ball Brothers Foundation/Clancy's Car Wash/Indiana Wesleyan University&Home School",
    "locality": "Muncie",
    "rookie_year": 2006,
    "region": "Indiana",
    "team_number": 1720,
    "location": "Muncie, Indiana 47308, USA",
    "key": "frc1720",
    "country_name": "USA",
    "motto": "Well-oiled Gears work best together",
    "nickname": "PhyXTGears"
  },
  {
    "website": "http://www.redalert1741.org",
    "name": "Crossroads Engineers/Rolls-Royce/Endress+Hauser/Center Grove Education Foundation/Red Alert Robotics Parent Organization&Center Grove High School",
    "locality": "Greenwood",
    "rookie_year": 2006,
    "region": "Indiana",
    "team_number": 1741,
    "location": "Greenwood, Indiana 46143, USA",
    "key": "frc1741",
    "country_name": "USA",
    "motto": "Challenge Accepted!",
    "nickname": "Red Alert"
  },

  {
    "website": "http://cyberblue234.com/site/",
    "name": "Allison Transmission/Rolls-Royce/Morris Machine/Our Proud Grandmas/Society of Women Engineers&Perry Meridian High School",
    "locality": "Indianapolis",
    "rookie_year": 1999,
    "region": "Indiana",
    "team_number": 234,
    "location": "Indianapolis, Indiana 46217, USA",
    "key": "frc234",
    "country_name": "USA",
    "motto": "One Step Higher",
    "nickname": "Cyber Blue"
  },
 
  {
    "website": "http://team3176purpleprecision.weebly.com/",
    "name": "Rolls-Royce Corporation/WaterJet Cutting of Indiana & Brownsburg High School",
    "locality": "Brownsburg",
    "rookie_year": 2010,
    "region": "Indiana",
    "team_number": 3176,
    "location": "Brownsburg, Indiana 46112, USA",
    "key": "frc3176",
    "country_name": "USA",
    "motto": "One team, one home, one goal",
    "nickname": "Purple Precision"
  },

  {
    "website": "http://www.thequadrangles.com/",
    "name": "The Raymond Foundation / Fastenal / DOD STEM / Science Applications International Corporation (SAIC) / Naval Surface Warfare Center Crane & Bloomington High School South",
    "locality": "Bloomington",
    "rookie_year": 2011,
    "region": "Indiana",
    "team_number": 3494,
    "location": "Bloomington, Indiana 47401, USA",
    "key": "frc3494",
    "country_name": "USA",
    "motto": null,
    "nickname": "The Quadrangles"
  },
 
  {
    "website": "https://cybertooth3940.com/",
    "name": "AndyMark, Inc./FCA Foundation/Haynes International/Solidworks/Fastenal/Merrell Brothers/TGR Finishing/H&R Industrial /True Precision Technologies/FCA Transmission Plant 2/Dr. Ray Christine/Midpro Fluid Power&Northwestern Sr High Sch",
    "locality": "Kokomo",
    "rookie_year": 2012,
    "region": "Indiana",
    "team_number": 3940,
    "location": "Kokomo, Indiana 46901, USA",
    "key": "frc3940",
    "country_name": "USA",
    "motto": null,
    "nickname": "CyberTooth"
  },
  {
    "website": "http://www.firstinspires.org/",
    "name": "Rolls-Royce/Butler  Tool & Die/Hoosier Feeder Company/JAG Metal Solutions/CFH Enterprises/Henry County Community Fndn/J & W Machine Repair&Knightstown High School",
    "locality": "Knightstown",
    "rookie_year": 2012,
    "region": "Indiana",
    "team_number": 3947,
    "location": "Knightstown, Indiana 46148, USA",
    "key": "frc3947",
    "country_name": "USA",
    "motto": "Don't tell me it doesn't work. Make it work.",
    "nickname": "The Last Crusaders"
  },
  {
    "website": "http://www.firstinspires.org/",
    "name": "Rolls Royce / UTC / NASA & Avon High School",
    "locality": "Avon",
    "rookie_year": 2012,
    "region": "Indiana",
    "team_number": 4103,
    "location": "Avon, Indiana 46123, USA",
    "key": "frc4103",
    "country_name": "USA",
    "motto": null,
    "nickname": "Roborioles"
  },

  {
    "website": "http://www.techhounds.com",
    "name": "Boeing/Delphi Foundation/Rolls Royce & Carmel High School",
    "locality": "Carmel",
    "rookie_year": 2002,
    "region": "Indiana",
    "team_number": 868,
    "location": "Carmel, Indiana 46032, USA",
    "key": "frc868",
    "country_name": "USA",
    "motto": "Invent the Future",
    "nickname": "TechHOUNDS"
  }

]